,City,Lat,Lng,Max Temp,Humidity,Cloudiness,Wind Speed,Country,Date
0,Hilo,19.7297,-155.09,72.0,83,90,4.61,US,1614470051
1,Rikitea,-23.1203,-134.9692,76.6,75,6,16.31,PF,1614470051
2,Faya,18.3851,42.4509,55.4,62,0,11.5,SA,1614470051
3,Barrow,71.2906,-156.7887,-14.8,70,20,9.22,US,1614470051
4,Punta Arenas,-53.15,-70.9167,73.4,33,0,8.05,CL,1614470051
5,Mataura,-46.1927,168.8643,63.0,85,100,3.0,NZ,1614470052
6,Khovd,48.0056,91.6419,2.89,34,13,1.57,MN,1614470052
7,Constitución,-35.3333,-72.4167,61.0,75,3,16.08,CL,1614470052
8,Hermanus,-34.4187,19.2345,70.0,80,38,7.0,ZA,1614470052
9,Hobart,-42.8794,147.3294,69.01,63,75,6.91,AU,1614470052
10,Tateyama,34.9833,139.8667,44.01,37,42,1.01,JP,1614470053
11,At-Bashi,41.1702,75.8106,-0.13,76,28,2.48,KG,1614469881
12,Ushuaia,-54.8,-68.3,75.2,27,0,11.5,AR,1614469959
13,Makakilo City,21.3469,-158.0858,78.8,65,75,9.22,US,1614470053
14,Ponta do Sol,32.6667,-17.1,55.99,67,26,5.01,PT,1614470053
15,Richards Bay,-28.783,32.0377,68.49,82,71,1.41,ZA,1614469897
16,Bredasdorp,-34.5322,20.0403,69.8,83,69,12.66,ZA,1614470054
17,Muisne,0.6,-80.0333,78.57,81,34,4.07,EC,1614470054
18,Iquitos,-3.7481,-73.2472,78.8,89,75,4.61,PE,1614470054
19,Krasnosel'kup,65.7,82.4667,-31.92,98,0,5.03,RU,1614470054
20,Abhā,18.2164,42.5053,55.4,62,0,11.5,SA,1614470055
21,San Patricio,28.017,-97.5169,75.2,83,90,21.85,US,1614470055
22,Alofi,-19.0595,-169.9187,82.4,78,100,12.66,NU,1614470055
23,Albany,42.6001,-73.9662,42.01,64,68,8.03,US,1614470055
24,Corrientes,-27.4806,-58.8341,87.8,48,0,5.75,AR,1614470056
25,Qaanaaq,77.484,-69.3632,14.85,80,100,8.3,GL,1614470056
26,Kapaa,22.0752,-159.319,71.6,88,90,19.57,US,1614470056
27,Saskylakh,71.9167,114.0833,-28.84,76,39,2.06,RU,1614470056
28,Lagoa,39.05,-27.9833,58.86,86,97,13.24,PT,1614470057
29,Avarua,-21.2078,-159.775,84.2,84,75,19.57,CK,1614470057
30,Kishanpur,25.65,81.0167,68.56,32,23,1.14,IN,1614470057
31,Bengkulu,-3.8004,102.2655,76.6,75,18,3.27,ID,1614470057
32,Jamestown,42.097,-79.2353,34.0,97,40,3.69,US,1614469926
33,Vaini,-21.2,-175.2,80.6,74,75,3.44,TO,1614470058
34,Iqaluit,63.7506,-68.5145,-25.01,62,40,6.4,CA,1614470058
35,Bethel,41.3712,-73.414,42.01,89,97,1.99,US,1614469953
36,Yulara,-25.2406,130.9889,80.6,17,0,6.91,AU,1614470058
37,Busselton,-33.65,115.3333,64.0,80,51,1.99,AU,1614470058
38,Gao,16.6362,1.637,69.57,19,7,4.45,ML,1614470059
39,El Tigre,8.8875,-64.2454,78.62,59,59,16.89,VE,1614470059
40,Behbahān,30.5959,50.2417,44.6,70,0,2.33,IR,1614470059
41,Shetpe,44.1667,52.1167,36.05,92,48,15.08,KZ,1614470059
42,East London,-33.0153,27.9116,70.25,85,59,12.06,ZA,1614470060
43,Vila Franca do Campo,37.7167,-25.4333,60.01,88,20,2.3,PT,1614470060
44,Nizhneangarsk,55.7833,109.55,-18.11,72,95,4.85,RU,1614470060
45,Sheltozero,61.3667,35.3667,24.31,94,98,2.62,RU,1614470060
46,Kabompo,-13.5927,24.2008,65.57,93,100,1.32,ZM,1614470060
47,George Town,5.4112,100.3354,78.01,88,20,2.3,MY,1614470061
48,Srednekolymsk,67.45,153.6833,-24.7,85,21,2.15,RU,1614470061
49,Dingle,10.9995,122.6711,81.34,80,0,7.43,PH,1614470061
50,New Norfolk,-42.7826,147.0587,69.01,45,43,1.01,AU,1614470061
51,Kavieng,-2.5744,150.7967,83.5,76,95,9.4,PG,1614470062
52,Mayo,38.8876,-76.5119,48.0,87,1,6.31,US,1614470062
53,Vila do Maio,15.1333,-23.2167,68.0,73,75,20.71,CV,1614470062
54,Payo,-3.7508,103.6372,72.95,92,23,1.59,ID,1614470062
55,Yellowknife,62.456,-114.3525,-22.0,52,1,10.36,CA,1614470063
56,Oruzgan,32.8333,66.0,36.99,76,0,1.39,AF,1614470063
57,Torquay,50.4638,-3.5143,44.01,87,0,5.99,GB,1614470063
58,Kazanskaya,45.4106,40.4361,40.19,93,100,14.2,RU,1614470064
59,Provideniya,64.3833,-173.3,-0.4,60,0,2.24,RU,1614470064
60,Salina Cruz,16.1667,-95.2,82.04,63,0,10.0,MX,1614469887
61,Ilulissat,69.2167,-51.1,10.4,85,75,10.36,GL,1614470064
62,Castro,-24.7911,-50.0119,62.51,96,63,11.45,BR,1614470064
63,Salinas,36.6777,-121.6555,64.4,34,1,12.66,US,1614469860
64,Hay River,60.8156,-115.7999,-16.6,58,84,5.75,CA,1614470065
65,Baculin,7.4525,126.5842,83.1,68,87,4.59,PH,1614470065
66,Sungai Penuh,-2.0833,101.3833,65.43,87,13,3.22,ID,1614470065
67,Erzin,36.9559,36.2,48.99,71,0,7.0,TR,1614470066
68,Kumluca,36.3703,30.2869,55.74,62,0,3.42,TR,1614470066
69,Rio Tuba,8.5061,117.4317,81.05,80,3,8.99,PH,1614470066
70,Chumikan,54.7183,135.315,-0.36,92,100,9.69,RU,1614470066
71,Hong Kong,22.2855,114.1577,68.0,86,89,1.01,HK,1614469923
72,Cape Town,-33.9258,18.4232,70.0,68,0,8.05,ZA,1614470067
73,Haines Junction,60.7522,-137.5108,28.4,54,100,1.14,CA,1614470067
74,Cabo San Lucas,22.8909,-109.9124,73.4,68,90,10.36,MX,1614470067
75,Teya,60.3778,92.6267,-15.79,84,100,6.06,RU,1614470068
76,Leningradskiy,69.3833,178.4167,-11.67,88,100,7.34,RU,1614470068
77,Paamiut,61.994,-49.6678,14.11,89,47,10.09,GL,1614470068
78,Atuona,-9.8,-139.0333,80.29,78,29,12.97,PF,1614470068
79,Bluff,-46.6,168.3333,63.0,85,100,3.0,NZ,1614470068
80,Elizabeth City,36.2946,-76.2511,64.4,72,1,5.75,US,1614470069
81,Cartagena,10.3997,-75.5144,80.6,78,20,10.36,CO,1614470069
82,Portland,45.5234,-122.6762,51.8,43,75,10.36,US,1614469680
83,Kuytun,54.3419,101.5036,-13.49,89,100,2.73,RU,1614470069
84,Bandarbeyla,9.4942,50.8122,75.96,77,28,14.58,SO,1614470069
85,Frederiksværk,55.9707,12.0225,41.0,100,27,14.07,DK,1614470070
86,Saint-Philippe,-21.3585,55.7679,77.0,65,0,5.75,RE,1614470070
87,Nālūt,30.3333,10.85,51.8,44,0,10.74,LY,1614470070
88,Faanui,-16.4833,-151.75,83.48,71,0,9.48,PF,1614470070
89,Pemba,-12.974,40.5178,76.26,84,99,6.71,MZ,1614470071
90,Ribeira Grande,38.5167,-28.7,60.53,82,97,21.5,PT,1614470071
91,Huicheng,23.0385,116.2899,62.6,82,75,4.47,CN,1614470071
92,Dikson,73.5069,80.5464,-13.45,89,100,20.27,RU,1614470072
93,Kajiado,-1.8524,36.7768,62.31,57,23,8.37,KE,1614470072
94,Bowen,-20.0167,148.2333,77.0,94,75,6.91,AU,1614470072
95,Hithadhoo,-0.6,73.0833,82.36,63,93,6.06,MV,1614470072
96,Nizhniy Tsasuchey,50.5167,115.1333,-11.67,83,0,7.29,RU,1614470072
97,Kumul,42.8,93.45,23.92,69,85,4.94,CN,1614470073
98,Brae,60.3964,-1.353,44.6,93,44,19.57,GB,1614470073
99,Touros,-5.1989,-35.4608,78.8,89,40,4.61,BR,1614470073
100,Puerto Ayora,-0.7393,-90.3518,80.01,91,94,3.0,EC,1614470073
101,Vostok,46.4856,135.8833,24.28,96,100,10.87,RU,1614470073
102,Vaitape,-16.5167,-151.75,83.5,71,2,9.48,PF,1614470074
103,Ancud,-41.8697,-73.8203,59.0,77,90,5.75,CL,1614470074
104,Bambanglipuro,-7.95,110.2833,79.23,81,100,4.72,ID,1614470074
105,Cherskiy,68.75,161.3,-22.67,85,45,0.98,RU,1614470074
106,Den Helder,52.9599,4.7593,36.0,100,90,1.14,NL,1614470075
107,Mar del Plata,-38.0023,-57.5575,70.0,88,75,13.8,AR,1614470075
108,Comodoro Rivadavia,-45.8667,-67.5,64.4,88,40,5.75,AR,1614470075
109,Kruisfontein,-34.0033,24.7314,69.01,88,59,4.0,ZA,1614470075
110,Atambua,-9.1061,124.8925,77.13,80,54,2.35,ID,1614470076
111,Stolin,51.8912,26.846,32.22,87,97,8.72,BY,1614470076
112,Tuktoyaktuk,69.4541,-133.0374,-27.4,68,40,5.75,CA,1614470076
113,Wanaka,-44.7,169.15,72.0,57,55,4.85,NZ,1614470076
114,Galle,6.0367,80.217,74.98,84,26,4.18,LK,1614470077
115,Cidreira,-30.1811,-50.2056,74.55,77,5,19.91,BR,1614470077
116,Henties Bay,-22.116,14.2845,64.0,88,13,5.99,NA,1614470077
117,Tautira,-17.7333,-149.15,84.2,70,40,13.8,PF,1614470077
118,Mahébourg,-20.4081,57.7,77.0,83,75,7.02,MU,1614470077
119,Kieta,-6.2167,155.6333,81.12,84,100,8.37,PG,1614470078
120,Tiznit Province,29.5833,-9.5,51.37,81,60,3.94,MA,1614470078
121,Upernavik,72.7868,-56.1549,5.09,92,100,21.65,GL,1614470078
122,Airai,-8.9266,125.4092,65.43,98,59,2.06,TL,1614470078
123,Nemuro,43.3236,145.575,21.2,73,0,12.66,JP,1614470078
124,Belmonte,-15.8631,-38.8828,73.4,88,40,8.05,BR,1614470079
125,Chui,-33.6971,-53.4616,70.63,79,0,12.84,UY,1614470079
126,Clyde River,70.4692,-68.5914,-13.0,70,40,8.05,CA,1614470079
127,Goundi,9.3627,17.366,78.06,20,0,3.98,TD,1614470079
128,Mineiros,-17.5694,-52.5511,68.79,91,23,4.63,BR,1614469935
129,Lillooet,50.6856,-121.942,42.8,49,1,16.11,CA,1614470079
130,Esperance,-33.8667,121.9,62.6,94,40,10.36,AU,1614470080
131,Kudahuvadhoo,2.6708,72.8944,81.1,65,40,2.93,MV,1614470080
132,Talnakh,69.4865,88.3972,-31.94,79,7,5.48,RU,1614470080
133,Opuwo,-18.0607,13.84,67.33,59,68,0.74,NA,1614470080
134,Lebu,-37.6167,-73.65,58.42,82,9,17.25,CL,1614470081
135,Port Elizabeth,-33.918,25.5701,69.8,88,90,9.22,ZA,1614470081
136,Chokurdakh,70.6333,147.9167,-25.1,87,69,1.57,RU,1614470081
137,Neuquén,-38.9516,-68.0591,89.6,43,0,3.44,AR,1614470081
138,Arraial do Cabo,-22.9661,-42.0278,77.63,85,100,18.95,BR,1614470082
139,Sambava,-14.2667,50.1667,77.11,87,93,6.24,MG,1614470082
140,La Ronge,55.1001,-105.2842,3.2,72,100,2.3,CA,1614470082
141,Melfi,40.9965,15.6514,44.6,70,0,11.5,IT,1614470082
142,Charlestown,-32.95,151.6667,78.01,87,49,2.55,AU,1614470083
143,Nanortalik,60.1432,-45.2371,20.62,90,68,10.36,GL,1614470083
144,Ketchikan,55.3422,-131.6461,35.6,100,90,12.66,US,1614470083
145,Wainwright,52.839,-110.8572,14.0,62,52,8.05,CA,1614470083
146,Athabasca,54.7169,-113.2854,14.0,62,87,4.61,CA,1614470084
147,Aden,12.7794,45.0367,77.07,76,0,11.95,YE,1614470084
148,Broome,42.2506,-75.833,42.8,65,1,5.75,US,1614470084
149,Coyhaique,-45.5752,-72.0662,54.86,81,59,6.96,CL,1614470084
150,Kaeo,-35.1,173.7833,73.99,70,23,5.01,NZ,1614470084
151,Feijó,-8.1642,-70.3536,75.16,96,84,2.21,BR,1614470085
152,Makkah al Mukarramah,21.4267,39.8261,69.96,71,15,0.4,SA,1614470085
153,Grindavik,63.8424,-22.4338,41.0,75,75,31.07,IS,1614470085
154,Ahipara,-35.1667,173.1667,72.99,61,40,6.93,NZ,1614470085
155,Belaya Gora,68.5333,146.4167,-26.48,86,99,0.96,RU,1614470085
156,Tocopilla,-22.092,-70.1979,70.3,76,19,4.29,CL,1614470085
157,Mareeba,-17.0,145.4333,82.99,78,100,4.61,AU,1614470086
158,Nikolskoye,59.7035,30.7861,33.01,86,0,6.71,RU,1614470086
159,Thompson,55.7435,-97.8558,-4.0,41,75,10.36,CA,1614469802
160,Along,28.1667,94.7667,60.1,84,97,3.02,IN,1614470086
161,Maroantsetra,-15.4333,49.7333,75.27,88,93,3.53,MG,1614470087
162,Ponta Delgada,37.7333,-25.6667,60.01,88,20,2.3,PT,1614470087
163,Santa Maria,-29.6842,-53.8069,77.0,73,0,11.5,BR,1614470087
164,Tiksi,71.6872,128.8694,-28.21,86,63,2.51,RU,1614470088
165,Isangel,-19.55,169.2667,82.0,71,100,13.44,VU,1614470088
166,Torbay,47.6666,-52.7314,21.99,63,75,11.5,CA,1614470088
167,Puerto Madryn,-42.7692,-65.0385,76.35,46,90,24.11,AR,1614470088
168,Labuhan,-6.8844,112.2051,76.39,85,96,5.82,ID,1614470089
169,Dudinka,69.4058,86.1778,-34.06,81,0,6.58,RU,1614470089
170,Longyearbyen,78.2186,15.6401,19.4,68,75,10.36,SJ,1614470089
171,Blackwater,-23.5833,148.8833,82.67,62,100,12.82,AU,1614470089
172,Hambantota,6.1241,81.1185,76.64,85,31,5.37,LK,1614470089
173,Bataiporã,-22.2953,-53.2711,71.11,94,2,5.06,BR,1614470090
174,Mossamedes,-15.1961,12.1522,68.41,79,63,2.21,AO,1614470090
175,Pangnirtung,66.1451,-65.7125,-31.97,77,95,0.6,CA,1614470090
176,Presidencia Roque Sáenz Peña,-26.7852,-60.4388,89.01,47,3,4.0,AR,1614470090
177,Mount Gambier,-37.8333,140.7667,59.0,82,99,6.91,AU,1614470091
178,Menongue,-14.6585,17.691,61.7,94,53,3.62,AO,1614470091
179,Klaksvík,62.2266,-6.589,46.4,87,90,14.97,FO,1614470091
180,São João da Barra,-21.6403,-41.0511,76.68,88,92,10.29,BR,1614470091
181,Buin,-33.7333,-70.75,82.4,42,0,5.75,CL,1614470092
182,Tyrma,50.0833,132.1667,6.39,90,100,10.0,RU,1614470092
183,Nantucket,41.2835,-70.0995,46.99,100,90,11.5,US,1614470069
184,Alice Springs,-23.7,133.8833,87.01,16,0,3.44,AU,1614470093
185,Sur,22.5667,59.5289,68.97,66,0,7.18,OM,1614469993
186,Lao Cai,22.4833,103.95,64.29,92,95,1.92,VN,1614470093
187,Saldanha,-33.0117,17.9442,73.4,53,0,4.61,ZA,1614470093
188,Tuy Hoa,13.0833,109.3,74.95,92,55,2.91,VN,1614470093
189,Vung Tau,10.346,107.0843,78.13,82,1,15.55,VN,1614469992
190,Norman Wells,65.282,-126.8329,-14.8,58,20,14.97,CA,1614470093
191,Carnarvon,-24.8667,113.6333,73.4,83,75,13.8,AU,1614469926
192,Ojinaga,29.5667,-104.4167,82.4,7,1,6.91,MX,1614470094
193,Kifrī,34.6959,44.9661,49.77,50,0,1.97,IQ,1614470094
194,Laguna,38.421,-121.4238,63.0,23,1,18.41,US,1614470094
195,Seoul,37.5683,126.9778,41.0,56,0,3.44,KR,1614469910
196,Kulmbach,50.1,11.45,34.0,78,17,4.36,DE,1614470094
197,Saint Paul Harbor,57.79,-152.4072,39.2,87,90,3.44,US,1614470095
198,Vadodara,22.3,73.2,71.6,45,0,4.29,IN,1614470095
199,Kemijärvi,66.7131,27.4306,25.93,98,100,4.52,FI,1614470095
200,Ţahţā,26.7693,31.5021,60.8,44,0,4.61,EG,1614470096
201,Bamako,12.65,-8.0,73.4,23,6,3.44,ML,1614469885
202,Davila,18.4726,120.5763,73.4,94,20,2.3,PH,1614470096
203,San Cristobal,7.7669,-72.225,73.4,100,75,4.61,VE,1614470096
204,Manzhouli,49.6,117.4333,-10.93,82,0,11.16,CN,1614470097
205,Twentynine Palms,34.1356,-116.0542,66.0,15,1,6.91,US,1614470097
206,Kot Kapūra,30.5833,74.9,52.92,41,0,1.83,IN,1614470097
207,Pampas,-12.4,-74.9,51.48,80,98,1.9,PE,1614470097
208,Half Moon Bay,37.4636,-122.4286,60.01,71,1,19.57,US,1614470098
209,Kameoka,35.0,135.5833,48.0,78,98,6.13,JP,1614470098
210,Taltal,-25.4,-70.4833,66.49,81,31,3.44,CL,1614469820
211,Kushiro,42.975,144.3747,19.4,86,75,4.61,JP,1614470098
212,Adré,13.4667,22.2,67.77,25,0,9.64,TD,1614470099
213,Pisco,-13.7,-76.2167,77.0,65,0,9.22,PE,1614470066
214,Feuchtwangen,49.1667,10.3333,30.99,100,1,9.22,DE,1614470099
215,Constantine,36.365,6.6147,39.2,93,0,3.44,DZ,1614469924
216,Pasłęk,54.0616,19.6593,33.01,87,43,7.2,PL,1614470099
217,Shingū,33.7333,135.9833,51.8,62,75,5.75,JP,1614470100
218,Alegrete,-29.7831,-55.7919,78.76,56,37,13.91,BR,1614470100
219,Pangai,-19.8,-174.35,78.22,80,99,8.88,TO,1614470100
220,Preobrazheniye,42.9019,133.9064,34.38,88,89,11.07,RU,1614470100
221,Dobryatino,55.5055,41.3195,7.59,96,85,4.81,RU,1614470101
222,Zhalantun,48.0,122.7167,7.65,89,98,5.03,CN,1614470101
223,Sitka,57.0531,-135.33,42.8,81,90,11.5,US,1614470101
224,Bukachacha,52.9833,116.9167,-15.68,79,0,3.13,RU,1614470102
225,San Ignacio,17.1561,-89.0714,87.8,55,20,6.91,BZ,1614470102
226,Pincher Creek,49.4833,-113.952,24.8,58,1,6.91,CA,1614470102
227,Mahajanga,-15.7167,46.3167,77.0,94,40,4.61,MG,1614470103
228,College,64.8569,-147.8028,16.0,85,90,4.61,US,1614470103
229,Bambous Virieux,-20.3428,57.7575,77.0,83,75,6.35,MU,1614470104
230,Ballina,-28.8667,153.5667,80.6,69,75,4.61,AU,1614470104
231,Vila Velha,-20.3297,-40.2925,78.8,83,75,3.44,BR,1614470104
232,Bereda,43.2686,-7.5406,45.0,97,80,5.99,ES,1614470104
233,Tiarei,-17.5333,-149.3333,84.2,70,40,13.8,PF,1614470105
234,Tezu,27.9167,96.1667,66.25,48,69,4.38,IN,1614470105
235,Oddur,4.1213,43.8894,67.75,87,0,14.9,SO,1614470105
236,Acapulco de Juárez,16.8634,-99.8901,84.2,65,20,4.61,MX,1614469813
237,Wells,51.2079,-2.649,39.2,81,0,3.44,GB,1614470106
238,Lüderitz,-26.6481,15.1594,64.6,85,0,5.66,NA,1614470106
239,Port Alfred,-33.5906,26.891,71.01,92,52,3.0,ZA,1614470106
240,Talaya,61.3833,152.75,-21.19,83,83,0.38,RU,1614470107
241,Praia,14.9215,-23.5087,68.0,73,75,20.71,CV,1614470107
242,Cessnock,-32.8333,151.35,86.0,81,8,1.01,AU,1614470107
243,Luwuk,-0.9516,122.7875,83.1,66,98,2.15,ID,1614470107
244,Port Hardy,50.6996,-127.4199,39.2,93,90,11.5,CA,1614470107
245,Stokmarknes,68.5646,14.9108,43.0,88,93,8.01,NO,1614470108
246,Aasiaat,68.7098,-52.8699,3.65,93,88,7.81,GL,1614470108
247,Fuerte Olimpo,-21.0415,-57.8738,83.46,53,51,6.13,PY,1614470108
248,Pathein,16.7833,94.7333,68.47,93,0,4.76,MM,1614470108
249,Charters Towers,-20.1,146.2667,75.96,80,100,15.73,AU,1614470109
250,Zhigansk,66.7697,123.3711,-25.8,83,100,11.25,RU,1614470109
251,Tucumcari,35.1717,-103.725,68.0,5,1,23.02,US,1614470041
252,Port Lincoln,-34.7333,135.8667,65.77,70,41,10.51,AU,1614470109
253,Jiangyou,31.7667,104.7167,49.32,73,100,1.28,CN,1614470109
254,Lata,40.1629,-8.3327,57.0,93,20,2.3,PT,1614470110
255,Riverton,40.5219,-111.9391,32.0,74,40,4.61,US,1614469911
256,Coquimbo,-29.9533,-71.3436,62.6,82,0,8.05,CL,1614469996
257,Horishni Plavni,49.0097,33.6455,35.71,96,100,9.17,UA,1614470110
258,Tessalit,20.1986,1.0114,60.08,24,0,3.4,ML,1614470110
259,Innisfail,-17.5333,146.0333,78.93,88,100,10.29,AU,1614470111
260,Tasiilaq,65.6145,-37.6368,28.4,100,90,14.97,GL,1614470111
261,Saint George,37.1041,-113.5841,51.8,12,1,17.27,US,1614469861
262,Río Gallegos,-51.6226,-69.2181,68.0,60,40,9.22,AR,1614469825
263,Arys,42.4252,68.795,33.8,69,40,4.47,KZ,1614470111
264,Tsiroanomandidy,-18.7667,46.0333,67.73,93,100,1.99,MG,1614470111
265,Salalah,17.0151,54.0924,80.6,17,0,8.05,OM,1614470111
266,Doha,25.2867,51.5333,62.6,51,0,9.22,QA,1614470112
267,Mpwapwa,-6.35,36.4833,64.56,90,100,1.77,TZ,1614470112
268,Aykhal,66.0,111.5,-36.72,95,59,4.05,RU,1614470112
269,Loandjili,-4.7561,11.8578,80.6,89,40,8.05,CG,1614470112
270,Raisen,23.3333,77.8,67.21,39,1,3.09,IN,1614470112
271,Saint-François,46.4154,3.9054,39.99,80,0,2.48,FR,1614470113
272,Frontera,26.9333,-101.45,87.01,31,59,6.17,MX,1614469928
273,Meulaboh,4.1363,96.1285,77.72,80,62,1.07,ID,1614470113
274,Zheleznodorozhnyy,55.7503,38.0042,32.0,80,75,8.95,RU,1614470108
275,Megion,61.0296,76.1136,-16.6,76,0,4.47,RU,1614470114
276,Plácido de Castro,-10.3353,-67.1856,74.97,94,75,0.65,BR,1614470114
277,Souillac,-20.5167,57.5167,77.0,83,75,7.25,MU,1614470114
278,Makar'yev,57.8797,43.8069,-5.84,91,12,4.41,RU,1614470115
279,Atbasar,51.8,68.3333,13.89,94,100,14.38,KZ,1614470115
280,Kamenka,51.3223,42.7678,14.56,97,56,8.32,RU,1614470115
281,Jackson,42.4165,-122.8345,48.99,46,75,4.61,US,1614470115
282,Farkhor,37.4922,69.4036,28.4,93,20,2.24,TJ,1614470116
283,Beloha,-25.1667,45.05,73.96,94,100,3.62,MG,1614470116
284,Bosaso,11.2842,49.1816,74.61,74,4,3.11,SO,1614470116
285,Auki,-8.7676,160.7034,77.65,89,100,18.45,SB,1614470117
286,Martinsburg,39.4562,-77.9639,51.8,71,90,3.44,US,1614469920
287,Husavik,66.0449,-17.3389,39.2,70,40,19.57,IS,1614470117
288,Nelson Bay,-32.7167,152.15,73.99,88,90,6.91,AU,1614470056
289,Issia,6.4922,-6.5856,72.86,93,100,3.98,CI,1614470002
290,Nhulunbuy,-12.2333,136.7667,84.2,74,40,6.91,AU,1614470113
291,Sibu,2.3,111.8167,75.2,94,40,2.3,MY,1614470118
292,Yangi Marg`ilon,40.4272,71.7189,26.6,80,0,4.61,UZ,1614470118
293,Fare,-16.7,-151.0167,83.17,75,43,11.43,PF,1614470118
294,Lompoc,34.6391,-120.4579,62.6,42,1,17.27,US,1614470119
295,Lufilufi,-13.8745,-171.5986,89.6,74,75,11.5,WS,1614470119
296,Asău,46.4333,26.4,36.0,66,45,3.94,RO,1614470119
297,Zalesovo,53.9939,84.7431,-19.68,96,62,4.23,RU,1614470119
298,Te Anau,-45.4167,167.7167,65.19,73,98,1.05,NZ,1614469943
299,Erenhot,43.6475,111.9767,17.51,95,69,6.93,CN,1614470119
300,Ozernovskiy,51.5,156.5167,20.03,95,84,11.34,RU,1614470120
301,Valparaíso,-33.0393,-71.6273,68.0,49,0,8.05,CL,1614469996
302,Vao,-22.6667,167.4833,77.65,75,86,16.17,NC,1614470120
303,Slave Lake,55.2834,-114.769,10.4,67,40,4.65,CA,1614470120
304,Tabas,33.5959,56.9244,40.6,48,0,0.63,IR,1614470121
305,Kokoda,-8.8785,147.7407,81.36,59,99,2.82,PG,1614470121
306,Esmeraldas,-19.7625,-44.3139,69.8,78,40,10.36,BR,1614470121
307,Matagami,49.7502,-77.6328,5.0,85,90,13.8,CA,1614470121
308,Yar-Sale,66.8333,70.8333,-15.61,89,4,9.26,RU,1614470122
309,Le Mars,42.7942,-96.1656,41.0,81,90,9.22,US,1614470122
310,Pereira Barreto,-20.6383,-51.1092,73.2,85,20,7.0,BR,1614470122
311,Pacific Grove,36.6177,-121.9166,57.2,58,1,12.66,US,1614470122
312,Maragogi,-9.0122,-35.2225,79.03,77,26,6.17,BR,1614470122
313,Kindu,-2.95,25.95,71.38,84,99,2.3,CD,1614470123
314,Sola,-13.8833,167.55,82.09,81,81,15.93,VU,1614470123
315,Lipari,38.4674,14.954,55.99,78,0,1.12,IT,1614470123
316,Caraquet,47.7941,-64.9386,32.0,86,100,5.75,CA,1614470124
317,Vilyuysk,63.7553,121.6247,-19.1,87,100,5.95,RU,1614470124
318,Loa Janan,-0.583,117.095,76.68,95,100,1.95,ID,1614470124
319,Ostrovnoy,68.0531,39.5131,19.24,95,88,8.93,RU,1614470124
320,Mount Isa,-20.7333,139.5,86.0,39,40,2.3,AU,1614470125
321,Tuatapere,-46.1333,167.6833,63.0,85,98,3.0,NZ,1614470125
322,Butaritari,3.0707,172.7902,80.94,78,69,14.7,KI,1614470125
323,Toktogul,41.8708,72.9402,20.7,81,49,2.73,KG,1614470125
324,Yanliang,34.6592,109.2292,42.01,100,90,5.68,CN,1614470126
325,Safaga,26.7292,33.9365,62.6,51,0,14.97,EG,1614470126
326,Nakusp,50.2499,-117.8023,39.2,30,99,1.14,CA,1614470126
327,Buraidah,26.326,43.975,57.2,44,0,9.22,SA,1614469936
328,Khatīma,28.9167,79.9667,66.25,32,4,7.4,IN,1614470127
329,Oranjestad,12.524,-70.027,80.6,74,40,20.71,AW,1614470066
330,Afrikanda,67.4429,32.7828,21.99,96,95,2.19,RU,1614470127
331,Diffa,13.3154,12.6113,71.04,22,7,8.93,NE,1614470127
332,Naze,28.3667,129.4833,64.4,82,75,33.38,JP,1614469849
333,Olafsvik,64.8945,-23.7142,38.05,81,89,37.96,IS,1614470128
334,Glendive,47.1053,-104.7125,26.01,63,75,9.22,US,1614470128
335,Bouloupari,-21.8667,166.05,82.4,61,90,9.22,NC,1614470128
336,Gweta,-20.1833,25.2333,66.9,79,0,10.22,BW,1614470129
337,Katsuura,35.1333,140.3,44.01,48,20,6.91,JP,1614470129
338,Mezen',65.8522,44.24,16.14,98,80,1.66,RU,1614470129
339,Saint-Paul,-21.0096,55.2707,77.0,73,0,6.91,RE,1614470130
340,Banepā,27.6298,85.5214,57.2,88,75,3.44,NP,1614470130
341,Hearst,49.6835,-83.6665,-2.2,71,100,4.61,CA,1614470130
342,El Batey,19.7667,-70.5167,77.0,88,40,9.22,DO,1614470131
343,Porto-Novo,6.4965,2.6036,82.4,78,20,8.05,BJ,1614470131
344,Cap Malheureux,-19.9842,57.6142,77.0,81,10,3.0,MU,1614470131
345,Muncar,-8.4333,114.3333,75.99,83,97,2.86,ID,1614470131
346,Tomatlán,19.9333,-105.25,82.54,42,0,6.17,MX,1614470131
347,Ankola,14.6667,74.3,73.02,72,0,3.44,IN,1614470131
348,Orašac,44.6289,16.0711,38.46,78,72,7.67,BA,1614470132
349,Hella,67.2,14.4333,42.01,93,75,21.85,NO,1614470132
350,Puerto Santander,8.3636,-72.4063,73.4,100,75,4.61,CO,1614470132
351,Hamilton,39.1834,-84.5333,55.4,62,90,5.75,US,1614469937
352,Inuvik,68.3499,-133.7218,-20.2,63,2,3.44,CA,1614470114
353,Camacha,33.0833,-16.3333,59.0,77,40,10.36,PT,1614470133
354,Adrar,20.5022,-10.0711,60.49,31,0,9.46,MR,1614470133
355,Fortuna,40.5982,-124.1573,53.01,62,40,16.11,US,1614470133
356,Kerema,-7.9631,145.7785,77.68,86,100,6.17,PG,1614470134
357,Lewisporte,49.2499,-55.0482,21.2,73,40,8.05,CA,1614470134
358,Okha,53.5739,142.9478,8.2,95,100,14.61,RU,1614470134
359,Araucária,-25.5931,-49.4103,64.0,94,75,12.66,BR,1614469991
360,Lázaro Cárdenas,17.9583,-102.2,79.09,66,0,7.99,MX,1614470082
361,Pozo Colorado,-23.4923,-58.7972,87.44,37,72,7.34,PY,1614470135
362,Narsaq,60.9167,-46.05,23.0,46,20,12.66,GL,1614470135
363,Porto Walter,-8.2686,-72.7439,74.91,96,94,1.1,BR,1614470136
364,Kamskoye Ustye,55.2016,49.268,1.4,78,40,13.42,RU,1614470136
365,Shelburne,44.0787,-80.2041,37.0,88,41,14.54,CA,1614470136
366,La Primavera,5.4906,-70.4092,88.02,40,82,6.11,CO,1614470136
367,Flinders,-34.5833,150.8552,78.01,71,6,4.0,AU,1614470136
368,Russell,32.3502,-85.1999,75.2,69,40,3.22,US,1614470003
369,Parrita,9.5201,-84.3225,75.2,73,75,18.41,CR,1614470137
370,Ellsworth,44.5434,-68.4195,42.01,100,90,14.97,US,1614470137
371,Kawalu,-7.3817,108.2082,74.55,85,79,1.3,ID,1614470137
372,Barentu,15.1139,37.5928,57.69,44,13,2.51,ER,1614470137
373,Diyarb Najm,30.7542,31.4393,48.97,94,0,6.17,EG,1614470138
374,Khatanga,71.9667,102.5,-36.69,79,9,2.75,RU,1614470138
375,Uarini,-2.99,-65.1083,78.8,89,40,8.05,BR,1614470138
376,Santa Cruz del Sur,20.7147,-77.9956,81.41,61,36,4.54,CU,1614470138
377,New Haven,41.4001,-72.9329,46.4,87,20,5.75,US,1614470139
378,Ozinki,51.1786,49.6769,12.74,92,100,16.62,RU,1614470139
379,Abbeville,50.1,1.8333,37.99,83,12,7.45,FR,1614470139
380,San Francisco,37.7749,-122.4194,64.4,55,20,20.71,US,1614470028
381,Durant,33.994,-96.3708,57.99,100,90,6.91,US,1614469987
382,Kaitangata,-46.2817,169.8464,66.0,93,97,9.04,NZ,1614470139
383,Anadyr,64.75,177.4833,-25.01,68,0,8.95,RU,1614470140
384,Ust-Tsilma,65.441,52.1498,3.63,93,99,6.29,RU,1614470140
385,Fernandina Beach,30.6697,-81.4626,73.0,85,1,12.66,US,1614470140
386,Yizheng,24.6706,103.4296,45.77,96,45,7.38,CN,1614470141
387,Cascavel,-24.9558,-53.4553,65.53,95,9,8.9,BR,1614470141
388,Dessie,11.1333,39.6333,55.47,83,72,1.28,ET,1614470141
389,Caravelas,-17.7125,-39.2481,75.76,84,80,4.29,BR,1614470142
390,Florø,61.5996,5.0328,42.8,93,90,13.8,NO,1614470142
391,Yining,29.0361,114.5636,49.59,82,96,1.66,CN,1614470142
392,Xichang,27.8964,102.2634,53.19,62,88,4.41,CN,1614470142
393,Dalbandin,28.8947,64.4101,45.14,25,0,6.85,PK,1614470142
394,Dunedin,-45.8742,170.5036,63.0,88,92,11.79,NZ,1614470062
395,Māndal,25.45,74.5667,66.63,51,0,5.68,IN,1614470043
396,Gold Coast,-28.0,153.4333,84.99,69,90,9.22,AU,1614469952
397,Tieling,42.2931,123.8414,38.66,75,59,12.39,CN,1614470143
398,Brunswick,41.2381,-81.8418,39.99,84,64,1.01,US,1614469670
399,Malanje,-9.5402,16.341,62.67,90,40,2.66,AO,1614470144
400,East Wenatchee Bench,47.4257,-120.2812,48.99,34,1,10.36,US,1614470144
401,Arona,28.0996,-16.681,61.0,63,20,5.75,ES,1614470144
402,Barra,-11.0894,-43.1417,78.55,66,64,4.12,BR,1614470144
403,Severomorsk,69.0689,33.4162,21.2,93,75,2.24,RU,1614470145
404,Ust'-Ilimsk,58.0006,102.6619,-11.38,88,100,5.75,RU,1614470145
405,Novy Urengoy,66.0833,76.6333,-26.91,86,48,6.44,RU,1614470145
406,Arman',59.7,150.1667,0.23,82,68,8.99,RU,1614470145
407,Jurm,36.8648,70.8342,22.3,65,0,6.76,AF,1614470146
408,Pevek,69.7008,170.3133,-23.75,93,5,2.62,RU,1614470146
409,Ust-Maya,60.4167,134.5333,-5.33,90,100,5.19,RU,1614470146
410,Sarangani,5.4033,125.4636,82.51,78,75,9.08,PH,1614470146
411,Kavaratti,10.5669,72.642,81.36,76,0,11.5,IN,1614470146
412,Lodja,-3.4833,23.4333,71.64,85,63,0.54,CD,1614470147
413,Guerrero Negro,27.9769,-114.0611,62.38,57,100,12.77,MX,1614470147
414,Forsytheganj,52.6333,29.7333,32.81,95,100,9.93,BY,1614470147
415,Williston,48.147,-103.618,21.0,73,90,8.05,US,1614469982
416,Esso,55.9333,158.7,14.43,90,100,3.62,RU,1614470148
417,Geraldton,-28.7667,114.6,75.2,43,0,18.41,AU,1614470148
418,Shimoda,34.6667,138.95,42.8,65,40,10.36,JP,1614470149
419,Khani,41.9563,42.9566,35.6,87,0,4.61,GE,1614470149
420,Tulu Bolo,8.6667,38.2167,58.51,67,35,3.83,ET,1614470149
421,Sangar,63.9242,127.4739,-16.94,88,100,7.54,RU,1614470149
422,Nago,26.5881,127.9761,71.6,88,75,7.4,JP,1614470149
423,Aitape,-3.1374,142.3475,82.58,77,90,5.61,PG,1614470149
424,Quelimane,-17.8786,36.8883,80.6,83,40,4.61,MZ,1614470150
425,Turaif,31.6725,38.6637,50.0,46,40,10.36,SA,1614470150
426,Kungurtug,50.5994,97.5228,-14.46,79,98,0.94,RU,1614470150
427,Miandrivazo,-19.5167,45.4667,77.16,85,93,2.91,MG,1614470150
428,Zaterechnyy,44.7931,45.2097,40.59,89,100,13.2,RU,1614470150
429,Moyale,3.5167,39.0584,72.07,36,0,8.25,KE,1614470151
430,Kiryat Gat,31.61,34.7642,55.0,79,23,8.43,IL,1614470043
431,Okitipupa,6.5047,4.7839,77.47,91,60,2.01,NG,1614470151
432,Novikovo,51.1537,37.8879,33.4,93,100,9.46,RU,1614470152
433,Sørland,67.667,12.6934,43.09,88,91,23.44,NO,1614470152
434,Machico,32.7,-16.7667,59.0,77,40,17.27,PT,1614470152
435,Korla,41.7597,86.1469,28.51,50,100,2.21,CN,1614470152
436,Kahului,20.8947,-156.47,80.6,57,75,25.32,US,1614470064
437,Varhaug,58.6147,5.6457,41.0,96,62,3.0,NO,1614470153
438,Manono,-7.3,27.4167,69.64,94,91,0.27,CD,1614470153
439,South Venice,27.0531,-82.4243,77.0,78,20,3.44,US,1614470153
440,Ortona,42.3496,14.4039,53.01,76,75,6.91,IT,1614470153
441,Dabakala,8.3667,-4.4333,81.23,53,10,7.4,CI,1614470154
442,Walvis Bay,-22.9575,14.5053,64.0,88,35,2.3,NA,1614470154
443,Karlovo,42.6333,24.8,46.99,62,18,6.2,BG,1614470154
444,Dobre Miasto,53.9867,20.3975,30.2,100,0,3.44,PL,1614470155
445,Patitiri,39.15,23.8667,55.0,60,0,1.99,GR,1614470155
446,Tabuk,17.4189,121.4443,74.52,85,93,2.57,PH,1614470155
447,Vancouver,49.2497,-123.1193,46.0,65,75,6.91,CA,1614469519
448,Brandon,27.9378,-82.2859,80.6,61,40,3.09,US,1614469905
449,Ende,-8.8432,121.6623,80.92,75,68,5.82,ID,1614470156
450,Kitami,43.8031,143.8908,16.0,79,0,6.91,JP,1614470156
451,Masumbwe,-3.6333,32.1833,62.62,89,64,1.66,TZ,1614470156
452,Ixtapa,20.7,-105.2,77.0,73,1,9.22,MX,1614470156
453,Oparino,59.8518,48.2783,-5.6,92,80,4.52,RU,1614470157
454,Nicoya,10.1483,-85.452,86.0,48,40,25.32,CR,1614470157
455,Amga,60.8953,131.9608,-14.35,95,100,4.0,RU,1614470157
456,Landau,49.2075,8.1133,37.99,84,0,4.0,DE,1614470157
457,Seybaplaya,19.65,-90.6667,89.6,37,20,13.8,MX,1614470158
458,Sistranda,63.7256,8.834,44.6,93,75,27.63,NO,1614470158
459,Mindelo,16.8901,-24.9804,68.0,60,75,20.71,CV,1614470158
460,Inhambane,-23.865,35.3833,72.34,77,95,10.09,MZ,1614470158
461,Marsaxlokk,35.8419,14.5431,54.0,93,0,3.44,MT,1614470159
462,Antofagasta,-23.65,-70.4,69.8,73,20,11.5,CL,1614469863
463,Ryōtsu-minato,38.0833,138.4333,32.0,64,0,5.75,JP,1614470159
464,Port-Gentil,-0.7193,8.7815,80.6,89,40,5.75,GA,1614470159
465,Oktyabr'skiy,54.4815,53.471,26.87,98,100,4.14,RU,1614470160
466,Zhireken,52.8249,117.3076,-17.73,81,0,3.06,RU,1614470160
467,Ladário,-19.0047,-57.6017,81.41,55,30,4.12,BR,1614470160
468,Chenghai,23.4632,116.768,62.6,82,75,4.47,CN,1614470160
469,Wamba,8.9333,8.6,77.97,18,0,4.45,NG,1614470160
470,Westport,41.1415,-73.3579,46.99,100,92,11.36,US,1614470160
471,Katobu,-4.9408,122.5276,79.74,84,100,7.07,ID,1614470161
472,Ambulu,-8.345,113.6058,77.83,84,93,2.62,ID,1614470161
473,Ontario,34.0633,-117.6509,71.01,28,1,8.05,US,1614470162
474,Upper Arlington,39.9945,-83.0624,48.99,76,1,4.61,US,1614470162
475,Houma,29.5958,-90.7195,77.0,83,40,11.5,US,1614469958
476,Iracoubo,5.4802,-53.2011,76.71,84,90,15.5,GF,1614470162
477,Katherine,-14.4667,132.2667,82.4,78,57,4.61,AU,1614470162
478,Kedrovyy,56.1667,91.8167,-9.4,77,0,4.47,RU,1614470162
479,Laas,46.6166,10.7002,42.01,93,0,8.05,IT,1614470163
480,Zambezi,-13.5432,23.1047,64.9,94,89,1.88,ZM,1614470163
481,High Rock,26.6208,-78.2833,77.0,78,20,8.05,BS,1614470164
482,Lorengau,-2.0226,147.2712,83.5,76,91,10.38,PG,1614470164
483,Vestmannaeyjar,63.4427,-20.2734,43.52,69,100,34.56,IS,1614470164
484,Sauda,59.6506,6.3542,39.99,94,100,4.56,NO,1614470164
485,Poso,-1.3959,120.7524,80.98,72,100,1.48,ID,1614470164
486,San Quintín,30.4833,-115.95,61.16,70,1,11.32,MX,1614470165
487,Vanderhoof,54.0166,-124.0198,30.24,97,100,1.57,CA,1614470165
488,Ust-Kuyga,70.0167,135.6,-31.59,94,8,1.7,RU,1614470165
489,Hofn,64.2539,-15.2082,43.41,79,100,34.92,IS,1614470165
490,Sawākin,19.1059,37.3321,71.96,70,1,4.52,SD,1614470165
491,Parede,38.6928,-9.3541,59.0,54,99,1.99,PT,1614470166
492,Kodinsk,58.6881,99.1844,-14.82,87,100,4.27,RU,1614470166
493,San Felipe,10.3399,-68.7425,69.8,86,39,7.14,VE,1614469897
494,Dublin,37.7021,-121.9358,62.6,34,1,17.27,US,1614470166
495,Virginia Beach,36.8529,-75.978,62.6,67,75,5.75,US,1614469962
496,Puerto Ayacucho,5.6639,-67.6236,84.15,47,40,7.14,VE,1614470167
497,Bom Jesus,-9.0744,-44.3586,73.8,89,93,0.51,BR,1614470167
498,Acajutla,13.5928,-89.8275,91.4,29,0,6.42,SV,1614470167
499,Vardø,70.3705,31.1107,24.8,86,0,13.8,NO,1614470167
500,Upata,8.0086,-62.3989,75.99,86,74,8.01,VE,1614470167
501,Juba,4.8517,31.5825,76.06,35,77,0.36,SS,1614470110
502,Abu Samrah,35.3029,37.1841,49.28,52,0,4.54,SY,1614470168
503,Ucluelet,48.9329,-125.5528,44.01,75,90,5.75,CA,1614470168
504,Mokhsogollokh,61.4681,128.9203,-13.92,87,100,6.44,RU,1614470168
505,Manche,49.0,-1.1667,41.0,87,0,5.75,FR,1614470169
506,Rossland,49.0831,-117.8022,30.0,45,70,1.88,CA,1614469928
507,Port Augusta,-32.5,137.7667,82.99,73,0,11.5,AU,1614470169
508,Chapais,49.7834,-74.8492,26.6,86,90,3.44,CA,1614470169
509,Sobolevo,54.4299,31.8996,31.26,98,100,9.64,RU,1614470170
510,Sai Buri,6.7013,101.6168,73.18,81,0,4.52,TH,1614470170
511,Nipawin,53.3668,-104.0009,-4.0,65,90,13.8,CA,1614470170
512,Arti,56.4234,58.5328,6.75,92,91,12.1,RU,1614470170
513,Mayumba,-3.432,10.6554,78.8,86,91,7.99,GA,1614470171
514,Berlevåg,70.8578,29.0864,30.2,80,75,10.36,NO,1614470171
515,Puerto Escondido,15.85,-97.0667,82.4,74,40,9.22,MX,1614470171
516,Severo-Kuril'sk,50.6789,156.125,24.53,83,89,27.78,RU,1614470171
517,Dunaszekcső,46.0866,18.7587,41.0,75,0,4.61,HU,1614470172
518,Ascension,30.2169,-90.9001,79.0,65,75,11.5,US,1614470172
519,Nova Soure,-11.2333,-38.4833,75.4,81,50,11.88,BR,1614470172
520,Mawlaik,23.6333,94.4167,59.86,53,0,0.34,MM,1614470173
521,São José da Coroa Grande,-8.8978,-35.1478,79.29,77,69,6.69,BR,1614470173
522,Pokhara,28.2333,83.9833,63.01,35,64,5.14,NP,1614470173
523,Ocean City,39.2776,-74.5746,48.2,81,1,9.22,US,1614469896
524,Aklavik,68.2191,-135.0107,-22.0,63,1,5.75,CA,1614470173
525,Grand Gaube,-20.0064,57.6608,77.0,81,5,3.0,MU,1614470174
526,Sittwe,20.15,92.9,66.78,91,7,5.3,MM,1614470174
527,Yabēlo,4.8833,38.0833,62.78,41,42,3.96,ET,1614470174
528,Ust'-Ishim,57.6935,71.1665,-20.63,87,82,7.05,RU,1614470175
529,Mmathubudukwane,-24.6,26.4333,64.4,94,0,6.91,BW,1614470175
530,Kuppam,12.75,78.3667,66.29,54,0,1.07,IN,1614470175
531,Silver City,32.7701,-108.2803,59.0,7,1,19.57,US,1614470175
532,Atasū,48.6814,71.6433,14.31,87,100,16.08,KZ,1614470175
533,Sabang,5.8933,95.3214,79.81,64,1,4.07,ID,1614470176
534,High Prairie,55.4334,-116.4858,19.4,58,57,4.61,CA,1614470176
535,Porbandar,21.6422,69.6093,71.47,90,0,7.36,IN,1614470176
536,Onguday,50.75,86.15,-9.76,78,5,3.27,RU,1614470176
537,Puerto Baquerizo Moreno,-0.9,-89.6,78.89,81,53,7.14,EC,1614470177
538,Pandan,14.0453,124.1694,80.64,83,97,9.17,PH,1614470177
539,Ballitoville,-29.539,31.2144,72.0,88,20,1.14,ZA,1614470177
540,Havøysund,70.9963,24.6622,37.4,93,75,14.97,NO,1614470177
541,Senanga,-16.1167,23.2667,63.3,95,98,5.97,ZM,1614470178
542,Praia,14.9215,-23.5087,68.0,73,75,20.71,CV,1614470178
543,Grand-Lahou,5.1367,-5.0242,78.8,88,96,7.65,CI,1614470178
544,Biltine,14.5333,20.9167,71.91,21,0,8.86,TD,1614470178
545,Prince Rupert,54.3161,-130.3201,39.2,93,90,16.11,CA,1614470171
546,Kirakira,-10.4544,161.9205,85.14,69,92,6.4,SB,1614470179
547,Xining,36.6167,101.7667,22.21,85,100,2.21,CN,1614470179
548,Ust'-Koksa,50.2696,85.6108,-7.42,81,51,2.1,RU,1614470179
549,Mosquera,4.7059,-74.2302,55.4,94,75,4.61,CO,1614469956
550,Kargasok,59.0556,80.8572,-21.35,87,38,6.33,RU,1614470180
551,Abonnema,4.7084,6.7931,80.6,89,40,3.44,NG,1614470180
552,Cayenne,4.9333,-52.3333,78.8,83,75,10.36,GF,1614470180
553,Qandala,11.472,49.8728,75.07,73,0,1.36,SO,1614470180
554,Antsohihy,-14.8796,47.9875,72.82,94,100,3.98,MG,1614470181
555,Novoagansk,61.9449,76.6625,-18.89,88,80,4.18,RU,1614470181
556,Nouadhibou,20.931,-17.0347,62.6,67,0,20.71,MR,1614470181
557,Praia da Vitória,38.7333,-27.0667,59.0,88,20,15.03,PT,1614470181
558,Ekibastuz,51.6667,75.3667,4.98,94,100,13.65,KZ,1614470102
559,Margate,51.3813,1.3862,43.0,89,0,1.99,GB,1614470182
560,Gewanē,10.1664,40.6453,77.05,35,0,3.33,ET,1614470182
561,Cururupu,-1.8283,-44.8683,74.73,94,78,2.57,BR,1614470182
